{"biobanks":[{"id":"uk-biobank","name":"UK Biobank","country":"United Kingdom","iso2":"GB","flag":"🇬🇧","lat":53.39,"lng":-2.21,"sample_size":500000,"ascertainment":"Population-based","sequencing":"Exome and Genome","ancestries":["AFR","AMR","EAS","EUR","SAS"],"ancestry_n":{"EUR":402375,"SAS":6843,"AFR":6753,"EAS":1677,"AMR":508}},{"id":"all-of-us","name":"All of Us","country":"United States of America","iso2":"US","flag":"🇺🇸","lat":36.17,"lng":-86.78,"sample_size":400000,"ascertainment":"Population-based","sequencing":"Genome","ancestries":["AFR","AMR","EAS","EUR","SAS"],"ancestry_n":{"EUR":221223,"AFR":77969,"AMR":57022,"EAS":8895,"SAS":3794}},{"id":"ccpm","name":"Colorado Center for Personalized Medicine","country":"United States of America","iso2":"US","flag":"🇺🇸","lat":39.74,"lng":-104.99,"sample_size":90000,"ascertainment":"Hospital or health center-based","sequencing":"Exome","ancestries":["AFR","AMR","EAS","EUR","SAS"],"ancestry_n":{"EUR":75508,"AMR":9766,"AFR":3041,"EAS":1855,"SAS":743,"MID":309}},{"id":"gel","name":"Genomics England","country":"United Kingdom","iso2":"GB","flag":"🇬🇧","lat":51.5,"lng":-0.12,"sample_size":78000,"ascertainment":"Hospital or health center-based","sequencing":"Genome","ancestries":["AFR","EAS","EUR","SAS"],"ancestry_n":{"EUR":60524,"SAS":6994,"AFR":1953,"EAS":504}},{"id":"genes-and-health","name":"Genes & Health","country":"United Kingdom","iso2":"GB","flag":"🇬🇧","lat":51.54,"lng":-0.05,"sample_size":45000,"ascertainment":"Population-based","sequencing":"Exome","ancestries":["SAS"],"ancestry_n":{"SAS":38640}},{"id":"pmbb","name":"Penn Medicine BioBank","country":"United States of America","iso2":"US","flag":"🇺🇸","lat":39.95,"lng":-75.19,"sample_size":45000,"ascertainment":"Hospital or health center-based","sequencing":"Exome","ancestries":["AFR","AMR","EAS","EUR","SAS"],"ancestry_n":{"EUR":29973,"AFR":11145,"EAS":672,"AMR":571,"SAS":557}},{"id":"mgbb","name":"Mass General Brigham Biobank","country":"United States of America","iso2":"US","flag":"🇺🇸","lat":42.36,"lng":-71.06,"sample_size":45000,"ascertainment":"Hospital or health center-based","sequencing":"Exome","ancestries":["AFR","AMR","EAS","EUR","SAS"],"ancestry_n":{"EUR":42738,"AMR":3612,"AFR":2717}},{"id":"biome","name":"BioMe","country":"United States of America","iso2":"US","flag":"🇺🇸","lat":40.79,"lng":-73.95,"sample_size":31000,"ascertainment":"Hospital or health center-based","sequencing":"Exome","ancestries":["AFR","AMR","EAS","EUR","SAS"],"ancestry_n":{"EUR":9752,"AFR":8809,"AMR":8387,"SAS":973,"EAS":812}},{"id":"bbj","name":"Biobank Japan","country":"Japan","iso2":"JP","flag":"🇯🇵","lat":35.68,"lng":139.69,"sample_size":10000,"ascertainment":"Hospital or health center-based","sequencing":"Genome","ancestries":["EAS"],"ancestry_n":{"EAS":10245}},{"id":"egcut","name":"Estonian Biobank","country":"Estonia","iso2":"EE","flag":"🇪🇪","lat":58.38,"lng":26.72,"sample_size":3000,"ascertainment":"Population-based","sequencing":"Exome","ancestries":["EUR"],"ancestry_n":{"EUR":2398}}]}